var dados_cad = {
"type": "FeatureCollection",
"name": "dados_cad",
"crs": { "type": "name", "properties": { "name": "urn:ogc:def:crs:EPSG::4674" } },
"features": [

{ "type": "Feature", "properties": { "id": 109, "Total": null, "icon": "circle", "Nome": "Auto Escola Pinheiro", "Endereco": "Rua Uranos", "tipo": "Serviços" }, "geometry": { "type": "Point", "coordinates": [ -43.260143323074843, -22.855385599979371 ] } },
{ "type": "Feature", "properties": { "id": 990, "Total": null, "icon": "bank", "Nome": "Banco do Brasil", "Endereco": "Rua Prof.Lace", "tipo": "Banco" }, "geometry": { "type": "Point", "coordinates": [ -43.261118117382246, -22.855036943068406 ] } },
{ "type": "Feature", "properties": { "id": 116, "Total": null, "icon": "restaurant", "Nome": "Bobs", "Endereco": "Rua Euclides Farias", "tipo": "Refeição" }, "geometry": { "type": "Point", "coordinates": [ -43.26337080282952, -22.85516843174446 ] } },
{ "type": "Feature", "properties": { "id": 101, "Total": null, "icon": "circle", "Nome": "Bombeiros", "Endereco": "Rua Euclides Farias", "tipo": "Serviços" }, "geometry": { "type": "Point", "coordinates": [ -43.264289363263039, -22.855585891775899 ] } },
{ "type": "Feature", "properties": { "id": 992, "Total": null, "icon": "bank", "Nome": "Bradesco", "Endereco": "Rua Eucliedes Farias", "tipo": "Banco" }, "geometry": { "type": "Point", "coordinates": [ -43.26225747580559, -22.85421762854806 ] } },
{ "type": "Feature", "properties": { "id": 155, "Total": null, "icon": "bank", "Nome": "Caixa Econ.Federal", "Endereco": "Rua Euclides Farias", "tipo": "Banco" }, "geometry": { "type": "Point", "coordinates": [ -43.261977836340662, -22.854569604446681 ] } },
{ "type": "Feature", "properties": { "id": 995, "Total": null, "icon": "triangle", "Nome": "Casa do Biscoito", "Endereco": "Rua Uranos", "tipo": "Comercio" }, "geometry": { "type": "Point", "coordinates": [ -43.261046279030317, -22.854436383597388 ] } },
{ "type": "Feature", "properties": { "id": 114, "Total": null, "icon": "triangle", "Nome": "Casas Chamma", "Endereco": "Rua Euclides Farias", "tipo": "Comercio" }, "geometry": { "type": "Point", "coordinates": [ -43.262142346477425, -22.85427342414253 ] } },
{ "type": "Feature", "properties": { "id": 112, "Total": null, "icon": "triangle", "Nome": "Citycol", "Endereco": "Rua Euclides Farias", "tipo": "Comercio" }, "geometry": { "type": "Point", "coordinates": [ -43.261790166735203, -22.854174947342567 ] } },
{ "type": "Feature", "properties": { "id": 1, "Total": 100.0, "icon": "star-stroked", "Nome": "Cli_01", "Endereco": "Rua 01", "tipo": "Cliente" }, "geometry": { "type": "Point", "coordinates": [ -43.2659786, -22.85541965 ] } },
{ "type": "Feature", "properties": { "id": 3, "Total": 40.0, "icon": "star-stroked", "Nome": "Cli_02", "Endereco": "Rua 03", "tipo": "Cliente" }, "geometry": { "type": "Point", "coordinates": [ -43.266065, -22.85494863 ] } },
{ "type": "Feature", "properties": { "id": 5, "Total": 500.0, "icon": "star-stroked", "Nome": "Cli_03", "Endereco": "Rua 05", "tipo": "Cliente" }, "geometry": { "type": "Point", "coordinates": [ -43.2665689, -22.8550315 ] } },
{ "type": "Feature", "properties": { "id": 7, "Total": 30.0, "icon": "star-stroked", "Nome": "Cli_04", "Endereco": "Rua 07", "tipo": "Cliente" }, "geometry": { "type": "Point", "coordinates": [ -43.26638229, -22.8558289 ] } },
{ "type": "Feature", "properties": { "id": 9, "Total": 200.0, "icon": "star-stroked", "Nome": "Cli_05", "Endereco": "Rua 09", "tipo": "Cliente" }, "geometry": { "type": "Point", "coordinates": [ -43.2671231, -22.85611357 ] } },
{ "type": "Feature", "properties": { "id": 13, "Total": 50.0, "icon": "star-stroked", "Nome": "Cli_06", "Endereco": "Rua 13", "tipo": "Cliente" }, "geometry": { "type": "Point", "coordinates": [ -43.2662201, -22.85669039 ] } },
{ "type": "Feature", "properties": { "id": 14, "Total": 20.0, "icon": "star-stroked", "Nome": "Cli_07", "Endereco": "Rua 14", "tipo": "Cliente" }, "geometry": { "type": "Point", "coordinates": [ -43.2629176, -22.85675637 ] } },
{ "type": "Feature", "properties": { "id": 15, "Total": 80.0, "icon": "star-stroked", "Nome": "Cli_08", "Endereco": "Rua 15", "tipo": "Cliente" }, "geometry": { "type": "Point", "coordinates": [ -43.2631636, -22.85382987 ] } },
{ "type": "Feature", "properties": { "id": 996, "Total": null, "icon": "circle", "Nome": "Correios", "Endereco": "Rua Uranos", "tipo": "Serviços" }, "geometry": { "type": "Point", "coordinates": [ -43.26108379969822, -22.854305976397971 ] } },
{ "type": "Feature", "properties": { "id": 994, "Total": null, "icon": "triangle", "Nome": "Drogaria Pacheco", "Endereco": "Rua Uranos", "tipo": "Comercio" }, "geometry": { "type": "Point", "coordinates": [ -43.260642245496683, -22.854753936567196 ] } },
{ "type": "Feature", "properties": { "id": 105, "Total": null, "icon": "school", "Nome": "Escola Mun Prof.Carneiro Ribeiro", "Endereco": "Rua Professor Lace", "tipo": "Educação" }, "geometry": { "type": "Point", "coordinates": [ -43.261899956312568, -22.855634851992825 ] } },
{ "type": "Feature", "properties": { "id": 106, "Total": null, "icon": "school", "Nome": "Escola Mun. Joao Barbalho", "Endereco": "Rua Aureliano Lessa", "tipo": "Educação" }, "geometry": { "type": "Point", "coordinates": [ -43.261894763562282, -22.856484979395873 ] } },
{ "type": "Feature", "properties": { "id": 104, "Total": null, "icon": "school", "Nome": "Escola Mun.Padre Manuel da Nobrega", "Endereco": "Rua Professor Lace", "tipo": "Educação" }, "geometry": { "type": "Point", "coordinates": [ -43.264238919403176, -22.857035410925597 ] } },
{ "type": "Feature", "properties": { "id": 102, "Total": null, "icon": "school", "Nome": "Escola Mun.Walt Disney", "Endereco": "Rua Professor Lace", "tipo": "Educação" }, "geometry": { "type": "Point", "coordinates": [ -43.26435835265962, -22.856861824701937 ] } },
{ "type": "Feature", "properties": { "id": 123, "Total": null, "icon": "bus", "Nome": "Estação Ramos", "Endereco": null, "tipo": "Mobilidade" }, "geometry": { "type": "Point", "coordinates": [ -43.260052264489538, -22.855129857028082 ] } },
{ "type": "Feature", "properties": { "id": 2, "Total": 50.0, "icon": "shop", "Nome": "Forn_01", "Endereco": "Rua 02", "tipo": "Fornecedor" }, "geometry": { "type": "Point", "coordinates": [ -43.2655594, -22.85500895 ] } },
{ "type": "Feature", "properties": { "id": 4, "Total": 200.0, "icon": "shop", "Nome": "Forn_02", "Endereco": "Rua 04", "tipo": "Fornecedor" }, "geometry": { "type": "Point", "coordinates": [ -43.2662201, -22.85482516 ] } },
{ "type": "Feature", "properties": { "id": 6, "Total": 20.0, "icon": "shop", "Nome": "Forn_03", "Endereco": "Rua 06", "tipo": "Fornecedor" }, "geometry": { "type": "Point", "coordinates": [ -43.26482148, -22.8555838 ] } },
{ "type": "Feature", "properties": { "id": 8, "Total": 100.0, "icon": "shop", "Nome": "Forn_04", "Endereco": "Rua 08", "tipo": "Fornecedor" }, "geometry": { "type": "Point", "coordinates": [ -43.26756042, -22.8565113 ] } },
{ "type": "Feature", "properties": { "id": 10, "Total": 20.0, "icon": "shop", "Nome": "Forn_05", "Endereco": "Rua 10", "tipo": "Fornecedor" }, "geometry": { "type": "Point", "coordinates": [ -43.2662352, -22.85697503 ] } },
{ "type": "Feature", "properties": { "id": 11, "Total": 50.0, "icon": "shop", "Nome": "Forn_06", "Endereco": "Rua 11", "tipo": "Fornecedor" }, "geometry": { "type": "Point", "coordinates": [ -43.2673907, -22.85729549 ] } },
{ "type": "Feature", "properties": { "id": 12, "Total": 100.0, "icon": "shop", "Nome": "Forn_07", "Endereco": "Rua 12", "tipo": "Fornecedor" }, "geometry": { "type": "Point", "coordinates": [ -43.265471, -22.85702027 ] } },
{ "type": "Feature", "properties": { "id": 108, "Total": null, "icon": "place-of-worship", "Nome": "Igreja N.S.das Merces", "Endereco": "Rua Roberto Silva", "tipo": "Religião" }, "geometry": { "type": "Point", "coordinates": [ -43.259931903956286, -22.856851439201382 ] } },
{ "type": "Feature", "properties": { "id": 108, "Total": null, "icon": "square", "Nome": "Imperatriz Leopoldinense", "Endereco": "Rua Professor Lace", "tipo": "Social" }, "geometry": { "type": "Point", "coordinates": [ -43.262797560289599, -22.856188250808422 ] } },
{ "type": "Feature", "properties": { "id": 109, "Total": null, "icon": "school", "Nome": "Instituto Pio XI", "Endereco": "Ria Roberto Silva", "tipo": "Educação" }, "geometry": { "type": "Point", "coordinates": [ -43.259762768661439, -22.857078436570781 ] } },
{ "type": "Feature", "properties": { "id": 993, "Total": null, "icon": "bank", "Nome": "Itau", "Endereco": "Rua Uranos", "tipo": "Banco" }, "geometry": { "type": "Point", "coordinates": [ -43.261931417253983, -22.854686773235322 ] } },
{ "type": "Feature", "properties": { "id": 997, "Total": null, "icon": "triangle", "Nome": "Lojas Americanas", "Endereco": "Rua Uranos", "tipo": "Comercio" }, "geometry": { "type": "Point", "coordinates": [ -43.260819324746386, -22.854661050035713 ] } },
{ "type": "Feature", "properties": { "id": 999, "Total": null, "icon": "grocery", "Nome": "Mundial", "Endereco": "Rua Uranos", "tipo": "Mercado" }, "geometry": { "type": "Point", "coordinates": [ -43.259715668027134, -22.856488581104038 ] } },
{ "type": "Feature", "properties": { "id": 113, "Total": null, "icon": "triangle", "Nome": "Muzuca", "Endereco": "Rua Euclides Farias", "tipo": "Comercio" }, "geometry": { "type": "Point", "coordinates": [ -43.262359680409794, -22.854380706255562 ] } },
{ "type": "Feature", "properties": { "id": 118, "Total": null, "icon": "triangle", "Nome": "Ousado", "Endereco": "Rua Euclides Farias", "tipo": "Comercio" }, "geometry": { "type": "Point", "coordinates": [ -43.261296670003176, -22.854158070904152 ] } },
{ "type": "Feature", "properties": { "id": 121, "Total": null, "icon": "restaurant", "Nome": "Padaria Nobre", "Endereco": "Rua Euclides Farias", "tipo": "Refeição" }, "geometry": { "type": "Point", "coordinates": [ -43.263677916917544, -22.855304185073212 ] } },
{ "type": "Feature", "properties": { "id": 111, "Total": null, "icon": "triangle", "Nome": "Pet Ramos", "Endereco": "Rua Uranos", "tipo": "Comercio" }, "geometry": { "type": "Point", "coordinates": [ -43.2606151215289, -22.854787691875654 ] } },
{ "type": "Feature", "properties": { "id": 116, "Total": null, "icon": "circle", "Nome": "Posto ALE", "Endereco": "Rua Euclides Farias", "tipo": "Serviços" }, "geometry": { "type": "Point", "coordinates": [ -43.263418279403517, -22.855181413620159 ] } },
{ "type": "Feature", "properties": { "id": 122, "Total": null, "icon": "star", "Nome": "Prefeitura-Conservação", "Endereco": "Rua Euclides Farias", "tipo": "Serviço Publico" }, "geometry": { "type": "Point", "coordinates": [ -43.264446443959066, -22.855306410537619 ] } },
{ "type": "Feature", "properties": { "id": 110, "Total": null, "icon": "star", "Nome": "Prefeitura-Desenv.Social", "Endereco": "Rua Professor Lace", "tipo": "Serviço Publico" }, "geometry": { "type": "Point", "coordinates": [ -43.260966744905019, -22.855194210040466 ] } },
{ "type": "Feature", "properties": { "id": 998, "Total": null, "icon": "grocery", "Nome": "Prezunic", "Endereco": "Rua Uranos", "tipo": "Mercado" }, "geometry": { "type": "Point", "coordinates": [ -43.26539501595402, -22.850354867040213 ] } },
{ "type": "Feature", "properties": { "id": 99, "Total": null, "icon": "circle", "Nome": "Prosil", "Endereco": "Rua Dr.Miguel Vieira Ferreira", "tipo": "Serviços" }, "geometry": { "type": "Point", "coordinates": [ -43.262414038590336, -22.855380036318351 ] } },
{ "type": "Feature", "properties": { "id": 117, "Total": null, "icon": "restaurant", "Nome": "Restaurante El Fernand", "Endereco": "Rua Euclides Farias", "tipo": "Refeição" }, "geometry": { "type": "Point", "coordinates": [ -43.263571094626059, -22.854943659839449 ] } },
{ "type": "Feature", "properties": { "id": 991, "Total": null, "icon": "bank", "Nome": "Santander", "Endereco": "Rua Euclides Farias", "tipo": "Banco" }, "geometry": { "type": "Point", "coordinates": [ -43.261541597603518, -22.854045848352815 ] } },
{ "type": "Feature", "properties": { "id": 115, "Total": null, "icon": "square", "Nome": "Sesc", "Endereco": "Rua Euclides Farias", "tipo": "Social" }, "geometry": { "type": "Point", "coordinates": [ -43.264008769292559, -22.855021180182927 ] } },
{ "type": "Feature", "properties": { "id": 107, "Total": null, "icon": "square", "Nome": "Social Ramos Clube", "Endereco": "Rua Aureliano Lessa", "tipo": "Social" }, "geometry": { "type": "Point", "coordinates": [ -43.261287953600942, -22.856753518767515 ] } },
{ "type": "Feature", "properties": { "id": 120, "Total": null, "icon": "restaurant", "Nome": "Subway", "Endereco": "Rua Euclides Farias", "tipo": "Refeição" }, "geometry": { "type": "Point", "coordinates": [ -43.261510314586147, -22.854272311410323 ] } },

]
}
